[
  {
    "state": "Himachal Pradesh",
    "districts": [
      { "name": "Bilaspur", "latitude": 31.33, "longitude": 76.76 },
      { "name": "Chamba", "latitude": 32.55, "longitude": 76.13 },
      { "name": "Hamirpur", "latitude": 31.68, "longitude": 76.52 },
      { "name": "Kangra", "latitude": 32.22, "longitude": 76.32 },
      { "name": "Kinnaur", "latitude": 31.53, "longitude": 78.27 },
      { "name": "Kullu", "latitude": 31.96, "longitude": 77.11 },
      { "name": "Lahaul and Spiti", "latitude": 32.57, "longitude": 77.03 },
      { "name": "Mandi", "latitude": 31.59, "longitude": 76.93 },
      { "name": "Shimla", "latitude": 31.1, "longitude": 77.17 },
      { "name": "Sirmaur", "latitude": 30.56, "longitude": 77.3 },
      { "name": "Solan", "latitude": 30.9, "longitude": 77.1 },
      { "name": "Una", "latitude": 31.43, "longitude": 76.27 }
    ]
  },
  {
    "state": "Punjab",
    "districts": [
      { "name": "Amritsar", "latitude": 31.63, "longitude": 74.87 },
      { "name": "Barnala", "latitude": 30.38, "longitude": 75.55 },
      { "name": "Bathinda", "latitude": 30.21, "longitude": 74.95 },
      { "name": "Faridkot", "latitude": 30.68, "longitude": 74.76 },
      { "name": "Fatehgarh Sahib", "latitude": 30.64, "longitude": 76.4 },
      { "name": "Fazilka", "latitude": 30.4, "longitude": 74.03 },
      { "name": "Ferozepur", "latitude": 30.93, "longitude": 74.62 },
      { "name": "Gurdaspur", "latitude": 32.03, "longitude": 75.4 },
      { "name": "Hoshiarpur", "latitude": 31.53, "longitude": 75.92 },
      { "name": "Jalandhar", "latitude": 31.33, "longitude": 75.58 },
      { "name": "Kapurthala", "latitude": 31.38, "longitude": 75.38 },
      { "name": "Ludhiana", "latitude": 30.9, "longitude": 75.86 },
      { "name": "Malerkotla", "latitude": 30.52, "longitude": 75.88 },
      { "name": "Mansa", "latitude": 29.98, "longitude": 75.38 },
      { "name": "Moga", "latitude": 30.82, "longitude": 75.17 },
      { "name": "Muktsar", "latitude": 30.47, "longitude": 74.52 },
      { "name": "Pathankot", "latitude": 32.27, "longitude": 75.65 },
      { "name": "Patiala", "latitude": 30.34, "longitude": 76.38 },
      { "name": "Rupnagar", "latitude": 30.97, "longitude": 76.53 },
      {
        "name": "Sahibzada Ajit Singh Nagar",
        "latitude": 30.7,
        "longitude": 76.72
      },
      { "name": "Sangrur", "latitude": 30.25, "longitude": 75.84 },
      {
        "name": "Shahid Bhagat Singh Nagar",
        "latitude": 31.13,
        "longitude": 76.12
      },
      { "name": "Tarn Taran", "latitude": 31.45, "longitude": 74.93 }
    ]
  },
  {
    "state": "Haryana",
    "districts": [
      { "name": "Ambala", "latitude": 30.38, "longitude": 76.78 },
      { "name": "Bhiwani", "latitude": 28.78, "longitude": 76.13 },
      { "name": "Charkhi Dadri", "latitude": 28.6, "longitude": 76.27 },
      { "name": "Faridabad", "latitude": 28.4, "longitude": 77.32 },
      { "name": "Fatehabad", "latitude": 29.51, "longitude": 75.45 },
      { "name": "Gurugram", "latitude": 28.46, "longitude": 77.03 },
      { "name": "Hisar", "latitude": 29.15, "longitude": 75.72 },
      { "name": "Jhajjar", "latitude": 28.61, "longitude": 76.65 },
      { "name": "Jind", "latitude": 29.32, "longitude": 76.31 },
      { "name": "Kaithal", "latitude": 29.8, "longitude": 76.4 },
      { "name": "Karnal", "latitude": 29.69, "longitude": 76.99 },
      { "name": "Kurukshetra", "latitude": 29.97, "longitude": 76.88 },
      { "name": "Mahendragarh", "latitude": 28.27, "longitude": 76.15 },
      { "name": "Nuh", "latitude": 28.11, "longitude": 77.0 },
      { "name": "Palwal", "latitude": 28.15, "longitude": 77.33 },
      { "name": "Panchkula", "latitude": 30.74, "longitude": 76.8 },
      { "name": "Panipat", "latitude": 29.39, "longitude": 76.97 },
      { "name": "Rewari", "latitude": 28.18, "longitude": 76.62 },
      { "name": "Rohtak", "latitude": 28.9, "longitude": 76.58 },
      { "name": "Sirsa", "latitude": 29.53, "longitude": 75.02 },
      { "name": "Sonipat", "latitude": 28.99, "longitude": 77.02 },
      { "name": "Yamunanagar", "latitude": 30.13, "longitude": 77.27 }
    ]
  },
  {
    "state": "Chandigarh",
    "districts": [
      { "name": "Chandigarh", "latitude": 30.73, "longitude": 76.78 }
    ]
  },
  {
    "state": "Uttarakhand",
    "districts": [
      { "name": "Almora", "latitude": 29.5982, "longitude": 79.6586 },
      { "name": "Bageshwar", "latitude": 29.8377, "longitude": 79.7712 },
      { "name": "Chamoli", "latitude": 30.2736, "longitude": 79.3273 },
      { "name": "Champawat", "latitude": 29.3364, "longitude": 80.0963 },
      { "name": "Dehradun", "latitude": 30.3165, "longitude": 78.0322 },
      { "name": "Haridwar", "latitude": 29.9457, "longitude": 78.1642 },
      { "name": "Nainital", "latitude": 29.3919, "longitude": 79.4542 },
      { "name": "Pauri Garhwal", "latitude": 30.1458, "longitude": 78.7735 },
      { "name": "Pithoragarh", "latitude": 29.5828, "longitude": 80.2182 },
      { "name": "Rudraprayag", "latitude": 30.2844, "longitude": 78.9811 },
      { "name": "Tehri Garhwal", "latitude": 30.3845, "longitude": 78.4842 },
      { "name": "Udham Singh Nagar", "latitude": 28.98, "longitude": 79.4 },
      { "name": "Uttarkashi", "latitude": 30.7267, "longitude": 78.4354 }
    ]
  },
  {
    "state": "Uttar Pradesh",
    "districts": [
      { "name": "Agra", "latitude": 27.1767, "longitude": 78.0081 },
      { "name": "Aligarh", "latitude": 27.8974, "longitude": 78.088 },
      { "name": "Ambedkar Nagar", "latitude": 26.4116, "longitude": 82.535 },
      { "name": "Amethi", "latitude": 26.1601, "longitude": 81.8152 },
      { "name": "Amroha", "latitude": 28.9044, "longitude": 78.2778 },
      { "name": "Auraiya", "latitude": 26.4638, "longitude": 79.5222 },
      { "name": "Ayodhya", "latitude": 26.7922, "longitude": 82.1998 },
      { "name": "Azamgarh", "latitude": 26.0683, "longitude": 83.1843 },
      { "name": "Badaun", "latitude": 28.0287, "longitude": 79.1171 },
      { "name": "Baghpat", "latitude": 28.9427, "longitude": 77.2276 },
      { "name": "Bahraich", "latitude": 27.575, "longitude": 81.5976 },
      { "name": "Ballia", "latitude": 25.7597, "longitude": 84.1444 },
      { "name": "Balrampur", "latitude": 27.4287, "longitude": 82.1764 },
      { "name": "Banda", "latitude": 25.4746, "longitude": 80.3347 },
      { "name": "Barabanki", "latitude": 26.9311, "longitude": 81.1895 },
      { "name": "Bareilly", "latitude": 28.367, "longitude": 79.4304 },
      { "name": "Basti", "latitude": 26.8049, "longitude": 82.7246 },
      { "name": "Bhadohi", "latitude": 25.395, "longitude": 82.5694 },
      { "name": "Bijnor", "latitude": 29.3724, "longitude": 78.1358 },
      { "name": "Bulandshahr", "latitude": 28.4069, "longitude": 77.8498 },
      { "name": "Chandauli", "latitude": 25.2599, "longitude": 83.2678 },
      { "name": "Chitrakoot", "latitude": 25.2045, "longitude": 80.9329 },
      { "name": "Deoria", "latitude": 26.5029, "longitude": 83.7794 },
      { "name": "Etah", "latitude": 27.6253, "longitude": 78.6653 },
      { "name": "Etawah", "latitude": 26.7725, "longitude": 79.027 },
      { "name": "Farrukhabad", "latitude": 27.3828, "longitude": 79.5891 },
      { "name": "Fatehpur", "latitude": 25.9256, "longitude": 80.8351 },
      { "name": "Firozabad", "latitude": 27.1512, "longitude": 78.3957 },
      {
        "name": "Gautam Buddha Nagar",
        "latitude": 28.4744,
        "longitude": 77.504
      },
      { "name": "Ghaziabad", "latitude": 28.6692, "longitude": 77.4538 },
      { "name": "Ghazipur", "latitude": 25.5786, "longitude": 83.578 },
      { "name": "Gonda", "latitude": 27.1337, "longitude": 81.961 },
      { "name": "Gorakhpur", "latitude": 26.7606, "longitude": 83.3732 },
      { "name": "Hamirpur", "latitude": 25.9546, "longitude": 80.1491 },
      { "name": "Hapur", "latitude": 28.7306, "longitude": 77.7759 },
      { "name": "Hardoi", "latitude": 27.4111, "longitude": 80.1256 },
      { "name": "Hathras", "latitude": 27.6033, "longitude": 78.0536 },
      { "name": "Jalaun", "latitude": 26.136, "longitude": 79.3496 },
      { "name": "Jaunpur", "latitude": 25.7464, "longitude": 82.6837 },
      { "name": "Jhansi", "latitude": 25.4484, "longitude": 78.5685 },
      { "name": "Kannauj", "latitude": 27.0544, "longitude": 79.9142 },
      { "name": "Kanpur Dehat", "latitude": 26.3989, "longitude": 79.9329 },
      { "name": "Kanpur Nagar", "latitude": 26.4499, "longitude": 80.3319 },
      { "name": "Kasganj", "latitude": 27.8093, "longitude": 78.6477 },
      { "name": "Kaushambi", "latitude": 25.5342, "longitude": 81.3323 },
      { "name": "Kushinagar", "latitude": 26.903, "longitude": 83.9825 },
      { "name": "Lakhimpur Kheri", "latitude": 27.9482, "longitude": 80.7788 },
      { "name": "Lalitpur", "latitude": 24.6853, "longitude": 78.4187 },
      { "name": "Lucknow", "latitude": 26.8467, "longitude": 80.9462 },
      { "name": "Maharajganj", "latitude": 27.1437, "longitude": 83.5606 },
      { "name": "Mahoba", "latitude": 25.2903, "longitude": 79.8732 },
      { "name": "Mainpuri", "latitude": 27.2274, "longitude": 79.0243 },
      { "name": "Mathura", "latitude": 27.4924, "longitude": 77.6737 },
      { "name": "Mau", "latitude": 25.9409, "longitude": 83.5627 },
      { "name": "Meerut", "latitude": 28.9845, "longitude": 77.7064 },
      { "name": "Mirzapur", "latitude": 25.1337, "longitude": 82.5644 },
      { "name": "Moradabad", "latitude": 28.8386, "longitude": 78.7733 },
      { "name": "Muzaffarnagar", "latitude": 29.4727, "longitude": 77.7085 },
      { "name": "Pilibhit", "latitude": 28.6315, "longitude": 79.7997 },
      { "name": "Pratapgarh", "latitude": 25.9083, "longitude": 81.9366 },
      { "name": "Prayagraj", "latitude": 25.4358, "longitude": 81.8463 },
      { "name": "Rae Bareli", "latitude": 26.2255, "longitude": 81.2405 },
      { "name": "Rampur", "latitude": 28.8155, "longitude": 79.0253 },
      { "name": "Saharanpur", "latitude": 29.964, "longitude": 77.546 },
      { "name": "Sambhal", "latitude": 28.5833, "longitude": 78.5667 },
      { "name": "Sant Kabir Nagar", "latitude": 26.7441, "longitude": 83.0298 },
      { "name": "Shahjahanpur", "latitude": 27.8804, "longitude": 79.913 },
      { "name": "Shamli", "latitude": 29.4496, "longitude": 77.3087 },
      { "name": "Shravasti", "latitude": 27.5029, "longitude": 81.9056 },
      { "name": "Siddharthnagar", "latitude": 27.2952, "longitude": 82.813 },
      { "name": "Sitapur", "latitude": 27.5684, "longitude": 80.6797 },
      { "name": "Sonbhadra", "latitude": 24.6871, "longitude": 83.0645 },
      { "name": "Sultanpur", "latitude": 26.257, "longitude": 82.0766 },
      { "name": "Unnao", "latitude": 26.5393, "longitude": 80.4878 },
      { "name": "Varanasi", "latitude": 25.3176, "longitude": 82.9739 }
    ]
  },
  {
    "state": "Delhi",
    "districts": [
      { "name": "Central Delhi", "latitude": 28.6465, "longitude": 77.2346 },
      { "name": "East Delhi", "latitude": 28.63, "longitude": 77.3 },
      { "name": "New Delhi", "latitude": 28.6139, "longitude": 77.209 },
      { "name": "North Delhi", "latitude": 28.6833, "longitude": 77.2167 },
      { "name": "North East Delhi", "latitude": 28.7121, "longitude": 77.2721 },
      { "name": "North West Delhi", "latitude": 28.7299, "longitude": 77.142 },
      { "name": "Shahdara", "latitude": 28.6826, "longitude": 77.2917 },
      { "name": "South Delhi", "latitude": 28.4897, "longitude": 77.1906 },
      { "name": "South East Delhi", "latitude": 28.5393, "longitude": 77.2514 },
      { "name": "South West Delhi", "latitude": 28.583, "longitude": 77.062 },
      { "name": "West Delhi", "latitude": 28.6496, "longitude": 77.0864 }
    ]
  },
  {
    "state": "Madhya Pradesh",
    "districts": [
      { "name": "Agar Malwa", "latitude": 23.7144, "longitude": 76.0152 },
      { "name": "Alirajpur", "latitude": 22.3018, "longitude": 74.3542 },
      { "name": "Anuppur", "latitude": 23.1042, "longitude": 81.6917 },
      { "name": "Ashoknagar", "latitude": 24.5779, "longitude": 77.7289 },
      { "name": "Balaghat", "latitude": 21.8129, "longitude": 80.1838 },
      { "name": "Barwani", "latitude": 22.0315, "longitude": 74.9038 },
      { "name": "Betul", "latitude": 21.9022, "longitude": 77.8967 },
      { "name": "Bhind", "latitude": 26.5615, "longitude": 78.7836 },
      { "name": "Bhopal", "latitude": 23.2599, "longitude": 77.4126 },
      { "name": "Burhanpur", "latitude": 21.3145, "longitude": 76.2217 },
      { "name": "Chhatarpur", "latitude": 24.9157, "longitude": 79.5824 },
      { "name": "Chhindwara", "latitude": 22.0574, "longitude": 78.9382 },
      { "name": "Damoh", "latitude": 23.8388, "longitude": 79.4422 },
      { "name": "Datia", "latitude": 25.6653, "longitude": 78.4619 },
      { "name": "Dewas", "latitude": 22.9676, "longitude": 76.0534 },
      { "name": "Dhar", "latitude": 22.5976, "longitude": 75.3055 },
      { "name": "Dindori", "latitude": 22.9463, "longitude": 81.0776 },
      { "name": "Guna", "latitude": 24.6473, "longitude": 77.311 },
      { "name": "Gwalior", "latitude": 26.2124, "longitude": 78.1772 },
      { "name": "Harda", "latitude": 22.3392, "longitude": 77.1009 },
      { "name": "Narmadapuram", "latitude": 22.7533, "longitude": 77.717 },
      { "name": "Indore", "latitude": 22.7196, "longitude": 75.8577 },
      { "name": "Jabalpur", "latitude": 23.1686, "longitude": 79.9339 },
      { "name": "Jhabua", "latitude": 22.7661, "longitude": 74.5932 },
      { "name": "Katni", "latitude": 23.832, "longitude": 80.3985 },
      { "name": "Khandwa", "latitude": 21.8262, "longitude": 76.3533 },
      { "name": "Khargone", "latitude": 21.8228, "longitude": 75.6155 },
      { "name": "Maihar", "latitude": 24.2667, "longitude": 80.75 },
      { "name": "Mandla", "latitude": 22.5997, "longitude": 80.3697 },
      { "name": "Mandsaur", "latitude": 24.0734, "longitude": 75.0683 },
      { "name": "Mauganj", "latitude": 24.6833, "longitude": 81.8833 },
      { "name": "Morena", "latitude": 26.5003, "longitude": 78.0058 },
      { "name": "Narsinghpur", "latitude": 22.9515, "longitude": 79.1947 },
      { "name": "Neemuch", "latitude": 24.4754, "longitude": 74.8722 },
      { "name": "Niwari", "latitude": 25.3582, "longitude": 78.8021 },
      { "name": "Pandhurna", "latitude": 21.5959, "longitude": 78.5204 },
      { "name": "Panna", "latitude": 24.2694, "longitude": 80.1706 },
      { "name": "Raisen", "latitude": 23.332, "longitude": 77.7812 },
      { "name": "Rajgarh", "latitude": 24.0093, "longitude": 76.7329 },
      { "name": "Ratlam", "latitude": 23.3315, "longitude": 75.0367 },
      { "name": "Rewa", "latitude": 24.5373, "longitude": 81.2989 },
      { "name": "Sagar", "latitude": 23.8388, "longitude": 78.7378 },
      { "name": "Satna", "latitude": 24.5779, "longitude": 80.8286 },
      { "name": "Sehore", "latitude": 23.2032, "longitude": 77.0845 },
      { "name": "Seoni", "latitude": 22.0869, "longitude": 79.5435 },
      { "name": "Shahdol", "latitude": 23.3005, "longitude": 81.3571 },
      { "name": "Shajapur", "latitude": 23.4284, "longitude": 76.2754 },
      { "name": "Sheopur", "latitude": 25.6669, "longitude": 76.6961 },
      { "name": "Shivpuri", "latitude": 25.4326, "longitude": 77.6539 },
      { "name": "Sidhi", "latitude": 24.4042, "longitude": 81.8797 },
      { "name": "Singrauli", "latitude": 24.195, "longitude": 82.6625 },
      { "name": "Tikamgarh", "latitude": 24.7454, "longitude": 78.8329 },
      { "name": "Ujjain", "latitude": 23.1765, "longitude": 75.7885 },
      { "name": "Umaria", "latitude": 23.5262, "longitude": 80.8354 },
      { "name": "Vidisha", "latitude": 23.5251, "longitude": 77.8081 }
    ]
  },
  {
    "state": "Rajasthan",
    "districts": [
      { "name": "Ajmer", "latitude": 26.4499, "longitude": 74.6399 },
      { "name": "Alwar", "latitude": 27.553, "longitude": 76.6346 },
      { "name": "Anupgarh", "latitude": 29.1912, "longitude": 73.2085 },
      { "name": "Balotra", "latitude": 25.8344, "longitude": 72.2382 },
      { "name": "Banswara", "latitude": 23.5461, "longitude": 74.435 },
      { "name": "Baran", "latitude": 25.1011, "longitude": 76.5132 },
      { "name": "Barmer", "latitude": 25.7521, "longitude": 71.3967 },
      { "name": "Beawar", "latitude": 26.1042, "longitude": 74.3195 },
      { "name": "Bharatpur", "latitude": 27.2152, "longitude": 77.4932 },
      { "name": "Bhilwara", "latitude": 25.3463, "longitude": 74.6364 },
      { "name": "Bikaner", "latitude": 28.0229, "longitude": 73.3119 },
      { "name": "Bundi", "latitude": 25.4398, "longitude": 75.6358 },
      { "name": "Chittorgarh", "latitude": 24.8829, "longitude": 74.623 },
      { "name": "Churu", "latitude": 28.29, "longitude": 74.972 },
      { "name": "Dausa", "latitude": 26.8856, "longitude": 76.3284 },
      { "name": "Deeg", "latitude": 27.4714, "longitude": 77.3204 },
      { "name": "Dholpur", "latitude": 26.7013, "longitude": 77.8926 },
      { "name": "Didwana-Kuchaman", "latitude": 27.4011, "longitude": 74.5756 },
      { "name": "Dudu", "latitude": 26.6667, "longitude": 75.2333 },
      { "name": "Dungarpur", "latitude": 23.8378, "longitude": 73.7196 },
      { "name": "Gangapur City", "latitude": 26.4764, "longitude": 76.7197 },
      { "name": "Hanumangarh", "latitude": 29.5794, "longitude": 74.3235 },
      { "name": "Jaipur", "latitude": 26.9124, "longitude": 75.7873 },
      { "name": "Jaipur Rural", "latitude": 26.92, "longitude": 75.8 },
      { "name": "Jaisalmer", "latitude": 26.9157, "longitude": 70.9083 },
      { "name": "Jalore", "latitude": 25.3423, "longitude": 72.6186 },
      { "name": "Jhalawar", "latitude": 24.5973, "longitude": 76.161 },
      { "name": "Jhunjhunu", "latitude": 28.1289, "longitude": 75.3995 },
      { "name": "Jodhpur", "latitude": 26.2389, "longitude": 73.0243 },
      { "name": "Jodhpur Rural", "latitude": 26.25, "longitude": 73.05 },
      { "name": "Karauli", "latitude": 26.5024, "longitude": 77.0253 },
      { "name": "Kekri", "latitude": 25.9664, "longitude": 75.1485 },
      { "name": "Khairthal-Tijara", "latitude": 27.8228, "longitude": 76.8202 },
      { "name": "Kota", "latitude": 25.2138, "longitude": 75.8648 },
      { "name": "Kotputli-Behror", "latitude": 27.7027, "longitude": 76.2046 },
      { "name": "Nagaur", "latitude": 27.1983, "longitude": 73.7441 },
      { "name": "Neem Ka Thana", "latitude": 27.7347, "longitude": 75.785 },
      { "name": "Pali", "latitude": 25.7713, "longitude": 73.3237 },
      { "name": "Phalodi", "latitude": 27.1325, "longitude": 72.3665 },
      { "name": "Pratapgarh", "latitude": 24.0305, "longitude": 74.782 },
      { "name": "Rajsamand", "latitude": 25.0654, "longitude": 73.8828 },
      { "name": "Salumbar", "latitude": 24.1396, "longitude": 74.0502 },
      { "name": "Sanchore", "latitude": 24.7554, "longitude": 71.7656 },
      { "name": "Sawai Madhopur", "latitude": 26.0125, "longitude": 76.3533 },
      { "name": "Shahpura", "latitude": 25.6267, "longitude": 74.9281 },
      { "name": "Sikar", "latitude": 27.6094, "longitude": 75.1398 },
      { "name": "Sirohi", "latitude": 24.8826, "longitude": 72.8589 },
      { "name": "Sri Ganganagar", "latitude": 29.9175, "longitude": 73.8771 },
      { "name": "Tonk", "latitude": 26.1666, "longitude": 75.7845 },
      { "name": "Udaipur", "latitude": 24.5854, "longitude": 73.7125 }
    ]
  },
  {
    "state": "Gujarat",
    "districts": [
      { "name": "Ahmedabad", "latitude": 23.0225, "longitude": 72.5714 },
      { "name": "Amreli", "latitude": 21.6032, "longitude": 71.2221 },
      { "name": "Anand", "latitude": 22.5645, "longitude": 72.9289 },
      { "name": "Aravalli", "latitude": 23.3323, "longitude": 73.3134 },
      { "name": "Banaskantha", "latitude": 24.1724, "longitude": 71.8601 },
      { "name": "Bharuch", "latitude": 21.7051, "longitude": 72.9959 },
      { "name": "Bhavnagar", "latitude": 21.7645, "longitude": 72.1519 },
      { "name": "Botad", "latitude": 22.1706, "longitude": 71.6684 },
      { "name": "Chhota Udaipur", "latitude": 22.3082, "longitude": 74.0153 },
      { "name": "Dahod", "latitude": 22.8335, "longitude": 74.2562 },
      { "name": "Dang", "latitude": 20.8038, "longitude": 73.6843 },
      { "name": "Devbhoomi Dwarka", "latitude": 22.2442, "longitude": 68.9685 },
      { "name": "Gandhinagar", "latitude": 23.2156, "longitude": 72.6369 },
      { "name": "Gir Somnath", "latitude": 20.8655, "longitude": 70.3642 },
      { "name": "Jamnagar", "latitude": 22.4707, "longitude": 70.0577 },
      { "name": "Junagadh", "latitude": 21.5222, "longitude": 70.4579 },
      { "name": "Kheda", "latitude": 22.7533, "longitude": 72.6841 },
      { "name": "Kutch", "latitude": 23.7337, "longitude": 69.8597 },
      { "name": "Mahisagar", "latitude": 23.1118, "longitude": 73.5358 },
      { "name": "Mehsana", "latitude": 23.588, "longitude": 72.3693 },
      { "name": "Morbi", "latitude": 22.812, "longitude": 70.8322 },
      { "name": "Narmada", "latitude": 21.8708, "longitude": 73.5463 },
      { "name": "Navsari", "latitude": 20.9467, "longitude": 72.952 },
      { "name": "Panchmahal", "latitude": 22.7601, "longitude": 73.6217 },
      { "name": "Patan", "latitude": 23.8493, "longitude": 72.1266 },
      { "name": "Porbandar", "latitude": 21.6417, "longitude": 69.6293 },
      { "name": "Rajkot", "latitude": 22.3039, "longitude": 70.8022 },
      { "name": "Sabarkantha", "latitude": 23.6335, "longitude": 72.9774 },
      { "name": "Surat", "latitude": 21.1702, "longitude": 72.8311 },
      { "name": "Surendranagar", "latitude": 22.7275, "longitude": 71.6372 },
      { "name": "Tapi", "latitude": 21.1645, "longitude": 73.5414 },
      { "name": "Vadodara", "latitude": 22.3072, "longitude": 73.1812 },
      { "name": "Valsad", "latitude": 20.5992, "longitude": 72.9342 }
    ]
  },

  {
    "state": "Maharashtra",
    "districts": [
      { "name": "Ahmednagar", "latitude": 19.0952, "longitude": 74.7496 },
      { "name": "Akola", "latitude": 20.7059, "longitude": 77.0019 },
      { "name": "Amravati", "latitude": 20.932, "longitude": 77.7523 },
      { "name": "Aurangabad", "latitude": 19.8762, "longitude": 75.3433 },
      { "name": "Beed", "latitude": 18.9894, "longitude": 75.7601 },
      { "name": "Bhandara", "latitude": 21.1777, "longitude": 79.6583 },
      { "name": "Buldhana", "latitude": 20.5284, "longitude": 76.1843 },
      { "name": "Chandrapur", "latitude": 19.9615, "longitude": 79.2961 },
      { "name": "Dhule", "latitude": 20.9042, "longitude": 74.7749 },
      { "name": "Gadchiroli", "latitude": 20.1849, "longitude": 80.0033 },
      { "name": "Gondia", "latitude": 21.4549, "longitude": 80.1961 },
      { "name": "Hingoli", "latitude": 19.7153, "longitude": 77.1472 },
      { "name": "Jalgaon", "latitude": 21.0077, "longitude": 75.5626 },
      { "name": "Jalna", "latitude": 19.8297, "longitude": 75.88 },
      { "name": "Kolhapur", "latitude": 16.705, "longitude": 74.2433 },
      { "name": "Latur", "latitude": 18.4088, "longitude": 76.5604 },
      { "name": "Mumbai City", "latitude": 18.9067, "longitude": 72.8147 },
      { "name": "Mumbai Suburban", "latitude": 19.076, "longitude": 72.8777 },
      { "name": "Nagpur", "latitude": 21.1458, "longitude": 79.0882 },
      { "name": "Nanded", "latitude": 19.1383, "longitude": 77.321 },
      { "name": "Nandurbar", "latitude": 21.3695, "longitude": 74.2427 },
      { "name": "Nashik", "latitude": 19.9975, "longitude": 73.7898 },
      { "name": "Osmanabad", "latitude": 18.1856, "longitude": 76.0419 },
      { "name": "Palghar", "latitude": 19.6966, "longitude": 72.7655 },
      { "name": "Parbhani", "latitude": 19.2644, "longitude": 76.7766 },
      { "name": "Pune", "latitude": 18.5204, "longitude": 73.8567 },
      { "name": "Raigad", "latitude": 18.5158, "longitude": 73.1822 },
      { "name": "Ratnagiri", "latitude": 16.9902, "longitude": 73.312 },
      { "name": "Sangli", "latitude": 16.8524, "longitude": 74.5815 },
      { "name": "Satara", "latitude": 17.6805, "longitude": 73.9966 },
      { "name": "Sindhudurg", "latitude": 16.1084, "longitude": 73.53 },
      { "name": "Solapur", "latitude": 17.6599, "longitude": 75.9064 },
      { "name": "Thane", "latitude": 19.2183, "longitude": 72.9781 },
      { "name": "Wardha", "latitude": 20.7453, "longitude": 78.6022 },
      { "name": "Washim", "latitude": 20.113, "longitude": 77.1293 },
      { "name": "Yavatmal", "latitude": 20.3888, "longitude": 78.1204 }
    ]
  },
  {
    "state": "Goa",
    "districts": [
      { "name": "North Goa", "latitude": 15.4909, "longitude": 73.8278 },
      { "name": "South Goa", "latitude": 15.2736, "longitude": 73.9581 }
    ]
  },
  {
    "state": "Karnataka",
    "districts": [
      { "name": "Bagalkote", "latitude": 16.1691, "longitude": 75.6615 },
      { "name": "Ballari", "latitude": 15.1394, "longitude": 76.9214 },
      { "name": "Belagavi", "latitude": 15.8497, "longitude": 74.4977 },
      { "name": "Bengaluru Rural", "latitude": 13.15, "longitude": 77.58 },
      { "name": "Bengaluru Urban", "latitude": 12.9716, "longitude": 77.5946 },
      { "name": "Bidar", "latitude": 17.9104, "longitude": 77.5199 },
      { "name": "Chamarajanagara", "latitude": 11.9261, "longitude": 76.9437 },
      { "name": "Chikkaballapur", "latitude": 13.4325, "longitude": 77.7275 },
      { "name": "Chikkamagaluru", "latitude": 13.3161, "longitude": 75.772 },
      { "name": "Chitradurga", "latitude": 14.2251, "longitude": 76.401 },
      { "name": "Dakshina Kannada", "latitude": 12.9141, "longitude": 74.856 },
      { "name": "Davanagere", "latitude": 14.4644, "longitude": 75.9218 },
      { "name": "Dharwad", "latitude": 15.4589, "longitude": 75.0078 },
      { "name": "Gadag", "latitude": 15.4297, "longitude": 75.63 },
      { "name": "Hassan", "latitude": 13.0068, "longitude": 76.1004 },
      { "name": "Haveri", "latitude": 14.7946, "longitude": 75.4011 },
      { "name": "Kalaburagi", "latitude": 17.3297, "longitude": 76.8343 },
      { "name": "Kodagu", "latitude": 12.4244, "longitude": 75.7382 },
      { "name": "Kolar", "latitude": 13.1367, "longitude": 78.1292 },
      { "name": "Koppal", "latitude": 15.3456, "longitude": 76.1557 },
      { "name": "Mandya", "latitude": 12.5218, "longitude": 76.8951 },
      { "name": "Mysuru", "latitude": 12.2958, "longitude": 76.6394 },
      { "name": "Raichur", "latitude": 16.2076, "longitude": 77.3463 },
      { "name": "Ramanagara", "latitude": 12.715, "longitude": 77.2813 },
      { "name": "Shivamogga", "latitude": 13.9299, "longitude": 75.5681 },
      { "name": "Tumakuru", "latitude": 13.3392, "longitude": 77.101 },
      { "name": "Udupi", "latitude": 13.3409, "longitude": 74.7421 },
      { "name": "Uttara Kannada", "latitude": 14.8185, "longitude": 74.1416 },
      { "name": "Vijayanagara", "latitude": 15.2633, "longitude": 76.3882 },
      { "name": "Vijayapura", "latitude": 16.8302, "longitude": 75.71 },
      { "name": "Yadgir", "latitude": 16.7628, "longitude": 77.1352 }
    ]
  },
  {
    "state": "Kerala",
    "districts": [
      { "name": "Alappuzha", "latitude": 9.4981, "longitude": 76.3388 },
      { "name": "Ernakulam", "latitude": 9.9816, "longitude": 76.2999 },
      { "name": "Idukki", "latitude": 9.8493, "longitude": 76.9734 },
      { "name": "Kannur", "latitude": 11.8745, "longitude": 75.3704 },
      { "name": "Kasaragod", "latitude": 12.5102, "longitude": 74.9852 },
      { "name": "Kollam", "latitude": 8.8932, "longitude": 76.6141 },
      { "name": "Kottayam", "latitude": 9.5916, "longitude": 76.5222 },
      { "name": "Kozhikode", "latitude": 11.2588, "longitude": 75.7804 },
      { "name": "Malappuram", "latitude": 11.0735, "longitude": 76.0740 },
      { "name": "Palakkad", "latitude": 10.7867, "longitude": 76.6548 },
      { "name": "Pathanamthitta", "latitude": 9.2648, "longitude": 76.7870 },
      { "name": "Thiruvananthapuram", "latitude": 8.5241, "longitude": 76.9366 },
      { "name": "Thrissur", "latitude": 10.5276, "longitude": 76.2144 },
      { "name": "Wayanad", "latitude": 11.6103, "longitude": 76.0825 }
    ]
  },
  {
    "state": "Tamil Nadu",
    "districts": [
      { "name": "Ariyalur", "latitude": 11.1400, "longitude": 79.0786 },
      { "name": "Chengalpattu", "latitude": 12.6939, "longitude": 79.9756 },
      { "name": "Chennai", "latitude": 13.0827, "longitude": 80.2707 },
      { "name": "Coimbatore", "latitude": 11.0168, "longitude": 76.9558 },
      { "name": "Cuddalore", "latitude": 11.7480, "longitude": 79.7714 },
      { "name": "Dharmapuri", "latitude": 12.1277, "longitude": 78.1582 },
      { "name": "Dindigul", "latitude": 10.3673, "longitude": 77.9803 },
      { "name": "Erode", "latitude": 11.3410, "longitude": 77.7172 },
      { "name": "Kallakurichi", "latitude": 11.7384, "longitude": 78.9639 },
      { "name": "Kanchipuram", "latitude": 12.8342, "longitude": 79.7036 },
      { "name": "Kanyakumari", "latitude": 8.1833, "longitude": 77.4119 },
      { "name": "Karur", "latitude": 10.9598, "longitude": 78.0766 },
      { "name": "Krishnagiri", "latitude": 12.5186, "longitude": 78.2137 },
      { "name": "Madurai", "latitude": 9.9252, "longitude": 78.1198 },
      { "name": "Mayiladuthurai", "latitude": 11.1018, "longitude": 79.6526 },
      { "name": "Nagapattinam", "latitude": 10.7656, "longitude": 79.8424 },
      { "name": "Namakkal", "latitude": 11.2189, "longitude": 78.1674 },
      { "name": "Nilgiris", "latitude": 11.4100, "longitude": 76.6950 },
      { "name": "Perambalur", "latitude": 11.2342, "longitude": 78.8821 },
      { "name": "Pudukkottai", "latitude": 10.3797, "longitude": 78.8205 },
      { "name": "Ramanathapuram", "latitude": 9.3639, "longitude": 78.8306 },
      { "name": "Ranipet", "latitude": 12.9272, "longitude": 79.3330 },
      { "name": "Salem", "latitude": 11.6643, "longitude": 78.1460 },
      { "name": "Sivaganga", "latitude": 9.8433, "longitude": 78.4809 },
      { "name": "Tenkasi", "latitude": 8.9595, "longitude": 77.3160 },
      { "name": "Thanjavur", "latitude": 10.7870, "longitude": 79.1378 },
      { "name": "Theni", "latitude": 10.0096, "longitude": 77.4776 },
      { "name": "Thoothukudi", "latitude": 8.7642, "longitude": 78.1348 },
      { "name": "Tiruchirappalli", "latitude": 10.7905, "longitude": 78.7047 },
      { "name": "Tirunelveli", "latitude": 8.7139, "longitude": 77.7567 },
      { "name": "Tirupattur", "latitude": 12.4960, "longitude": 78.5670 },
      { "name": "Tiruppur", "latitude": 11.1085, "longitude": 77.3411 },
      { "name": "Tiruvallur", "latitude": 13.1419, "longitude": 79.9071 },
      { "name": "Tiruvannamalai", "latitude": 12.2253, "longitude": 79.0747 },
      { "name": "Tiruvarur", "latitude": 10.7661, "longitude": 79.6367 },
      { "name": "Vellore", "latitude": 12.9165, "longitude": 79.1325 },
      { "name": "Viluppuram", "latitude": 11.9401, "longitude": 79.4861 },
      { "name": "Virudhunagar", "latitude": 9.5872, "longitude": 77.9515 }
    ]
  },
  {
    "state": "Andhra Pradesh",
    "districts": [
      { "name": "Alluri Sitharama Raju", "latitude": 18.0827, "longitude": 82.6644 },
      { "name": "Anakapalli", "latitude": 17.6896, "longitude": 83.0024 },
      { "name": "Anantapur", "latitude": 14.6819, "longitude": 77.6006 },
      { "name": "Annamayya", "latitude": 14.0556, "longitude": 78.7517 },
      { "name": "Bapatla", "latitude": 15.9048, "longitude": 80.4682 },
      { "name": "Chittoor", "latitude": 13.2172, "longitude": 79.1003 },
      { "name": "East Godavari", "latitude": 17.0005, "longitude": 81.8040 },
      { "name": "Eluru", "latitude": 16.7107, "longitude": 81.1031 },
      { "name": "Guntur", "latitude": 16.3067, "longitude": 80.4365 },
      { "name": "Kakinada", "latitude": 16.9891, "longitude": 82.2475 },
      { "name": "Konaseema", "latitude": 16.5772, "longitude": 82.0042 },
      { "name": "Krishna", "latitude": 16.1782, "longitude": 81.1340 },
      { "name": "Kurnool", "latitude": 15.8281, "longitude": 78.0373 },
      { "name": "Nandyal", "latitude": 15.4851, "longitude": 78.4867 },
      { "name": "NTR", "latitude": 16.5062, "longitude": 80.6480 },
      { "name": "Palnadu", "latitude": 16.2343, "longitude": 80.0487 },
      { "name": "Parvathipuram Manyam", "latitude": 18.7801, "longitude": 83.4273 },
      { "name": "Prakasam", "latitude": 15.5057, "longitude": 80.0499 },
      { "name": "SPSR Nellore", "latitude": 14.4426, "longitude": 79.9865 },
      { "name": "Sri Sathya Sai", "latitude": 14.1668, "longitude": 77.8105 },
      { "name": "Srikakulam", "latitude": 18.2949, "longitude": 83.8938 },
      { "name": "Tirupati", "latitude": 13.6288, "longitude": 79.4192 },
      { "name": "Visakhapatnam", "latitude": 17.6868, "longitude": 83.2185 },
      { "name": "Vizianagaram", "latitude": 18.1133, "longitude": 83.3977 },
      { "name": "West Godavari", "latitude": 16.5441, "longitude": 81.5212 },
      { "name": "YSR Kadapa", "latitude": 14.4673, "longitude": 78.8242 }
    ]
  },
  {
    "state": "Telangana",
    "districts": [
      { "name": "Adilabad", "latitude": 19.6823, "longitude": 78.5316 },
      { "name": "Bhadradri Kothagudem", "latitude": 17.5511, "longitude": 80.6174 },
      { "name": "Hanumakonda", "latitude": 18.0054, "longitude": 79.5591 },
      { "name": "Hyderabad", "latitude": 17.3850, "longitude": 78.4867 },
      { "name": "Jagtial", "latitude": 18.7993, "longitude": 78.9130 },
      { "name": "Jangaon", "latitude": 17.7280, "longitude": 79.1627 },
      { "name": "Jayashankar Bhupalpally", "latitude": 18.4328, "longitude": 79.8550 },
      { "name": "Jogulamba Gadwal", "latitude": 16.2263, "longitude": 77.8010 },
      { "name": "Kamareddy", "latitude": 18.3168, "longitude": 78.3444 },
      { "name": "Karimnagar", "latitude": 18.4386, "longitude": 79.1288 },
      { "name": "Khammam", "latitude": 17.2473, "longitude": 80.1514 },
      { "name": "Komaram Bheem Asifabad", "latitude": 19.3626, "longitude": 79.2818 },
      { "name": "Mahabubabad", "latitude": 17.5960, "longitude": 80.0076 },
      { "name": "Mahabubnagar", "latitude": 16.7441, "longitude": 78.0006 },
      { "name": "Mancherial", "latitude": 18.8715, "longitude": 79.4442 },
      { "name": "Medak", "latitude": 18.0441, "longitude": 78.2618 },
      { "name": "Medchal-Malkajgiri", "latitude": 17.6293, "longitude": 78.4832 },
      { "name": "Mulugu", "latitude": 18.1904, "longitude": 79.9431 },
      { "name": "Nagarkurnool", "latitude": 16.4835, "longitude": 78.3276 },
      { "name": "Nalgonda", "latitude": 17.0504, "longitude": 79.2682 },
      { "name": "Narayanpet", "latitude": 16.7360, "longitude": 77.4981 },
      { "name": "Nirmal", "latitude": 19.0964, "longitude": 78.3430 },
      { "name": "Nizamabad", "latitude": 18.6725, "longitude": 78.0941 },
      { "name": "Peddapalli", "latitude": 18.6146, "longitude": 79.3804 },
      { "name": "Rajanna Sircilla", "latitude": 18.3905, "longitude": 78.8037 },
      { "name": "Ranga Reddy", "latitude": 17.2605, "longitude": 78.3846 },
      { "name": "Sangareddy", "latitude": 17.6294, "longitude": 78.0817 },
      { "name": "Siddipet", "latitude": 18.1018, "longitude": 78.8520 },
      { "name": "Suryapet", "latitude": 17.1398, "longitude": 79.6234 },
      { "name": "Vikarabad", "latitude": 17.3364, "longitude": 77.9048 },
      { "name": "Wanaparthy", "latitude": 16.3639, "longitude": 78.0631 },
      { "name": "Warangal", "latitude": 17.9810, "longitude": 79.5982 },
      { "name": "Yadadri Bhuvanagiri", "latitude": 17.5103, "longitude": 78.8893 }
    ]
  },
  {
    "state": "Bihar",
    "districts": [
      { "name": "Araria", "latitude": 26.1500, "longitude": 87.5200 },
      { "name": "Arwal", "latitude": 25.2500, "longitude": 84.6800 },
      { "name": "Aurangabad", "latitude": 24.7500, "longitude": 84.3700 },
      { "name": "Banka", "latitude": 24.8800, "longitude": 86.9200 },
      { "name": "Begusarai", "latitude": 25.4200, "longitude": 86.1300 },
      { "name": "Bhagalpur", "latitude": 25.2400, "longitude": 86.9700 },
      { "name": "Bhojpur", "latitude": 25.5600, "longitude": 84.6700 },
      { "name": "Buxar", "latitude": 25.5600, "longitude": 83.9800 },
      { "name": "Darbhanga", "latitude": 26.1500, "longitude": 85.9000 },
      { "name": "East Champaran", "latitude": 26.6500, "longitude": 84.9200 },
      { "name": "Gaya", "latitude": 24.7900, "longitude": 85.0000 },
      { "name": "Gopalganj", "latitude": 26.4700, "longitude": 84.4300 },
      { "name": "Jamui", "latitude": 24.9300, "longitude": 86.2200 },
      { "name": "Jehanabad", "latitude": 25.2100, "longitude": 84.9900 },
      { "name": "Kaimur", "latitude": 25.0300, "longitude": 83.6100 },
      { "name": "Katihar", "latitude": 25.5400, "longitude": 87.5700 },
      { "name": "Khagaria", "latitude": 25.5000, "longitude": 86.4700 },
      { "name": "Kishanganj", "latitude": 26.0800, "longitude": 87.9400 },
      { "name": "Lakhisarai", "latitude": 25.1700, "longitude": 86.0900 },
      { "name": "Madhepura", "latitude": 25.9200, "longitude": 86.7900 },
      { "name": "Madhubani", "latitude": 26.3500, "longitude": 86.0800 },
      { "name": "Munger", "latitude": 25.3800, "longitude": 86.4700 },
      { "name": "Muzaffarpur", "latitude": 26.1200, "longitude": 85.3900 },
      { "name": "Nalanda", "latitude": 25.2000, "longitude": 85.5200 },
      { "name": "Nawada", "latitude": 24.8800, "longitude": 85.5300 },
      { "name": "Patna", "latitude": 25.6100, "longitude": 85.1400 },
      { "name": "Purnia", "latitude": 25.7800, "longitude": 87.4700 },
      { "name": "Rohtas", "latitude": 24.9500, "longitude": 84.0300 },
      { "name": "Saharsa", "latitude": 25.8800, "longitude": 86.6000 },
      { "name": "Samastipur", "latitude": 25.8600, "longitude": 85.7800 },
      { "name": "Saran", "latitude": 25.7800, "longitude": 84.7300 },
      { "name": "Sheikhpura", "latitude": 25.1300, "longitude": 85.8600 },
      { "name": "Sheohar", "latitude": 26.5100, "longitude": 85.2900 },
      { "name": "Sitamarhi", "latitude": 26.5900, "longitude": 85.4900 },
      { "name": "Siwan", "latitude": 26.2200, "longitude": 84.3600 },
      { "name": "Supaul", "latitude": 26.1200, "longitude": 86.6000 },
      { "name": "Vaishali", "latitude": 25.6800, "longitude": 85.2000 },
      { "name": "West Champaran", "latitude": 26.8000, "longitude": 84.5000 }
    ]
  },
  {
    "state": "Jharkhand",
    "districts": [
      { "name": "Bokaro", "latitude": 23.7900, "longitude": 85.9800 },
      { "name": "Chatra", "latitude": 24.2000, "longitude": 84.8700 },
      { "name": "Deoghar", "latitude": 24.4800, "longitude": 86.7000 },
      { "name": "Dhanbad", "latitude": 23.8000, "longitude": 86.4300 },
      { "name": "Dumka", "latitude": 24.2700, "longitude": 87.2500 },
      { "name": "East Singhbhum", "latitude": 22.8000, "longitude": 86.2000 },
      { "name": "Garhwa", "latitude": 24.1800, "longitude": 83.8200 },
      { "name": "Giridih", "latitude": 24.1900, "longitude": 86.3000 },
      { "name": "Godda", "latitude": 24.8300, "longitude": 87.2200 },
      { "name": "Gumla", "latitude": 23.0500, "longitude": 84.5400 },
      { "name": "Hazaribagh", "latitude": 23.9900, "longitude": 85.3600 },
      { "name": "Jamtara", "latitude": 23.9700, "longitude": 86.8000 },
      { "name": "Khunti", "latitude": 23.0800, "longitude": 85.2800 },
      { "name": "Koderma", "latitude": 24.4700, "longitude": 85.5900 },
      { "name": "Latehar", "latitude": 23.7500, "longitude": 84.5000 },
      { "name": "Lohardaga", "latitude": 23.4300, "longitude": 84.6800 },
      { "name": "Pakur", "latitude": 24.6300, "longitude": 87.8500 },
      { "name": "Palamu", "latitude": 24.0300, "longitude": 84.0700 },
      { "name": "Ramgarh", "latitude": 23.6300, "longitude": 85.5200 },
      { "name": "Ranchi", "latitude": 23.3400, "longitude": 85.3100 },
      { "name": "Sahibganj", "latitude": 25.2400, "longitude": 87.6400 },
      { "name": "Saraikela-Kharsawan", "latitude": 22.7000, "longitude": 85.9300 },
      { "name": "Simdega", "latitude": 22.6200, "longitude": 84.5000 },
      { "name": "West Singhbhum", "latitude": 22.5500, "longitude": 85.8000 }
    ]
  },
  {
    "state": "West Bengal",
    "districts": [
      { "name": "Alipurduar", "latitude": 26.4900, "longitude": 89.5300 },
      { "name": "Bankura", "latitude": 23.2300, "longitude": 87.0800 },
      { "name": "Birbhum", "latitude": 23.9100, "longitude": 87.5300 },
      { "name": "Cooch Behar", "latitude": 26.3300, "longitude": 89.4500 },
      { "name": "Dakshin Dinajpur", "latitude": 25.2600, "longitude": 88.7600 },
      { "name": "Darjeeling", "latitude": 27.0400, "longitude": 88.2600 },
      { "name": "Hooghly", "latitude": 22.8900, "longitude": 88.3900 },
      { "name": "Howrah", "latitude": 22.6000, "longitude": 88.2600 },
      { "name": "Jalpaiguri", "latitude": 26.5400, "longitude": 88.7200 },
      { "name": "Jhargram", "latitude": 22.4500, "longitude": 86.9800 },
      { "name": "Kalimpong", "latitude": 27.0600, "longitude": 88.4700 },
      { "name": "Kolkata", "latitude": 22.5700, "longitude": 88.3600 },
      { "name": "Malda", "latitude": 25.0100, "longitude": 88.1400 },
      { "name": "Murshidabad", "latitude": 24.1000, "longitude": 88.2500 },
      { "name": "Nadia", "latitude": 23.4000, "longitude": 88.5000 },
      { "name": "North 24 Parganas", "latitude": 22.7200, "longitude": 88.4800 },
      { "name": "Paschim Bardhaman", "latitude": 23.6800, "longitude": 86.9800 },
      { "name": "Paschim Medinipur", "latitude": 22.4300, "longitude": 87.3200 },
      { "name": "Purba Bardhaman", "latitude": 23.2300, "longitude": 87.8600 },
      { "name": "Purba Medinipur", "latitude": 22.3000, "longitude": 87.9200 },
      { "name": "Purulia", "latitude": 23.3300, "longitude": 86.3600 },
      { "name": "South 24 Parganas", "latitude": 22.5300, "longitude": 88.3300 },
      { "name": "Uttar Dinajpur", "latitude": 25.6200, "longitude": 88.1200 }
    ]
  },
  {
    "state": "Odisha",
    "districts": [
      { "name": "Angul", "latitude": 20.8300, "longitude": 85.1000 },
      { "name": "Balangir", "latitude": 20.7200, "longitude": 83.4800 },
      { "name": "Balasore", "latitude": 21.5000, "longitude": 86.9300 },
      { "name": "Bargarh", "latitude": 21.3300, "longitude": 83.6200 },
      { "name": "Bhadrak", "latitude": 21.0500, "longitude": 86.5000 },
      { "name": "Boudh", "latitude": 20.8400, "longitude": 84.3200 },
      { "name": "Cuttack", "latitude": 20.4600, "longitude": 85.8800 },
      { "name": "Deoghar", "latitude": 21.5400, "longitude": 84.7300 },
      { "name": "Dhenkanal", "latitude": 20.6600, "longitude": 85.6000 },
      { "name": "Gajapati", "latitude": 18.7700, "longitude": 84.0900 },
      { "name": "Ganjam", "latitude": 19.3500, "longitude": 84.9800 },
      { "name": "Jagatsinghpur", "latitude": 20.2700, "longitude": 86.1700 },
      { "name": "Jajpur", "latitude": 20.8400, "longitude": 86.3300 },
      { "name": "Jharsuguda", "latitude": 21.8600, "longitude": 84.0100 },
      { "name": "Kalahandi", "latitude": 19.9000, "longitude": 83.1600 },
      { "name": "Kandhamal", "latitude": 20.4700, "longitude": 84.2300 },
      { "name": "Kendrapara", "latitude": 20.5000, "longitude": 86.4200 },
      { "name": "Keonjhar", "latitude": 21.6300, "longitude": 85.5800 },
      { "name": "Khordha", "latitude": 20.1800, "longitude": 85.6200 },
      { "name": "Koraput", "latitude": 18.8100, "longitude": 82.7100 },
      { "name": "Malkangiri", "latitude": 18.3500, "longitude": 81.8800 },
      { "name": "Mayurbhanj", "latitude": 21.9300, "longitude": 86.7300 },
      { "name": "Nabarangpur", "latitude": 19.2300, "longitude": 82.5500 },
      { "name": "Nayagarh", "latitude": 20.1300, "longitude": 85.1000 },
      { "name": "Nuapada", "latitude": 20.8300, "longitude": 82.5300 },
      { "name": "Puri", "latitude": 19.8100, "longitude": 85.8300 },
      { "name": "Rayagada", "latitude": 19.1700, "longitude": 83.4200 },
      { "name": "Sambalpur", "latitude": 21.4700, "longitude": 83.9700 },
      { "name": "Subarnapur", "latitude": 20.8400, "longitude": 83.9200 },
      { "name": "Sundargarh", "latitude": 22.1200, "longitude": 84.0300 }
    ]
  },
  {
    "state": "Chhattisgarh",
    "districts": [
      { "name": "Balod", "latitude": 20.7300, "longitude": 81.2000 },
      { "name": "Baloda Bazar", "latitude": 21.6600, "longitude": 82.1600 },
      { "name": "Balrampur", "latitude": 23.6100, "longitude": 83.6100 },
      { "name": "Bastar", "latitude": 19.0700, "longitude": 82.0300 },
      { "name": "Bemetara", "latitude": 21.7000, "longitude": 81.5500 },
      { "name": "Bijapur", "latitude": 18.8000, "longitude": 80.8100 },
      { "name": "Bilaspur", "latitude": 22.0800, "longitude": 82.1400 },
      { "name": "Dantewada", "latitude": 18.9000, "longitude": 81.3500 },
      { "name": "Dhamtari", "latitude": 20.7100, "longitude": 81.5500 },
      { "name": "Durg", "latitude": 21.1900, "longitude": 81.2800 },
      { "name": "Gariaband", "latitude": 20.6400, "longitude": 82.0600 },
      { "name": "Gaurela-Pendra-Marwahi", "latitude": 22.7500, "longitude": 81.8900 },
      { "name": "Janjgir-Champa", "latitude": 22.0100, "longitude": 82.5600 },
      { "name": "Jashpur", "latitude": 22.8800, "longitude": 84.1400 },
      { "name": "Kabirdham", "latitude": 22.0100, "longitude": 81.2300 },
      { "name": "Kanker", "latitude": 20.2700, "longitude": 81.4900 },
      { "name": "Khairagarh-Chhuikhadan-Gandai", "latitude": 21.4200, "longitude": 80.9700 },
      { "name": "Kondagaon", "latitude": 19.5900, "longitude": 81.6600 },
      { "name": "Korba", "latitude": 22.3500, "longitude": 82.6800 },
      { "name": "Koriya", "latitude": 23.2500, "longitude": 82.5500 },
      { "name": "Mahasamund", "latitude": 21.1100, "longitude": 82.1000 },
      { "name": "Manendragarh-Chirmiri-Bharatpur", "latitude": 23.2100, "longitude": 82.2000 },
      { "name": "Mohla-Manpur-Ambagarh Chowki", "latitude": 20.5700, "longitude": 80.7400 },
      { "name": "Mungeli", "latitude": 22.0700, "longitude": 81.6900 },
      { "name": "Narayanpur", "latitude": 19.7200, "longitude": 81.2200 },
      { "name": "Raigarh", "latitude": 21.9000, "longitude": 83.4000 },
      { "name": "Raipur", "latitude": 21.2500, "longitude": 81.6300 },
      { "name": "Rajnandgaon", "latitude": 21.1000, "longitude": 81.0300 },
      { "name": "Sarangarh-Bilaigarh", "latitude": 21.5900, "longitude": 83.0800 },
      { "name": "Sakti", "latitude": 22.0300, "longitude": 82.9600 },
      { "name": "Sukma", "latitude": 18.3900, "longitude": 81.6600 },
      { "name": "Surajpur", "latitude": 23.2200, "longitude": 82.8500 },
      { "name": "Surguja", "latitude": 23.1100, "longitude": 83.2000 }
    ]
  },
  {
    "state": "Sikkim",
    "districts": [
      { "name": "Gangtok", "latitude": 27.3389, "longitude": 88.6065 },
      { "name": "Gyalshing", "latitude": 27.2913, "longitude": 88.2483 },
      { "name": "Mangan", "latitude": 27.5085, "longitude": 88.5303 },
      { "name": "Namchi", "latitude": 27.1673, "longitude": 88.3582 },
      { "name": "Pakyong", "latitude": 27.2346, "longitude": 88.5878 },
      { "name": "Soreng", "latitude": 27.1648, "longitude": 88.2045 }
    ]
  },
  {
    "state": "Assam",
    "districts": [
      { "name": "Bajali", "latitude": 26.5029, "longitude": 91.2057 },
      { "name": "Baksa", "latitude": 26.5925, "longitude": 91.4393 },
      { "name": "Barpeta", "latitude": 26.3216, "longitude": 91.0069 },
      { "name": "Biswanath", "latitude": 26.7323, "longitude": 93.1554 },
      { "name": "Bongaigaon", "latitude": 26.4716, "longitude": 90.5408 },
      { "name": "Cachar", "latitude": 24.8333, "longitude": 92.7789 },
      { "name": "Charaideo", "latitude": 26.9388, "longitude": 94.7570 },
      { "name": "Chirang", "latitude": 26.5415, "longitude": 90.6212 },
      { "name": "Darrang", "latitude": 26.4429, "longitude": 92.0298 },
      { "name": "Dhemaji", "latitude": 27.4836, "longitude": 94.5768 },
      { "name": "Dhubri", "latitude": 26.0207, "longitude": 89.9740 },
      { "name": "Dibrugarh", "latitude": 27.4728, "longitude": 94.9120 },
      { "name": "Dima Hasao", "latitude": 25.1764, "longitude": 93.0366 },
      { "name": "Goalpara", "latitude": 26.1729, "longitude": 90.6225 },
      { "name": "Golaghat", "latitude": 26.5160, "longitude": 93.9743 },
      { "name": "Hailakandi", "latitude": 24.6806, "longitude": 92.5645 },
      { "name": "Hojai", "latitude": 26.0028, "longitude": 92.8647 },
      { "name": "Jorhat", "latitude": 26.7509, "longitude": 94.2037 },
      { "name": "Kamrup", "latitude": 26.3168, "longitude": 91.3149 },
      { "name": "Kamrup Metropolitan", "latitude": 26.1445, "longitude": 91.7362 },
      { "name": "Karbi Anglong", "latitude": 26.0041, "longitude": 93.4402 },
      { "name": "Karimganj", "latitude": 24.8648, "longitude": 92.3589 },
      { "name": "Kokrajhar", "latitude": 26.4010, "longitude": 90.2667 },
      { "name": "Lakhimpur", "latitude": 27.2367, "longitude": 94.1039 },
      { "name": "Majuli", "latitude": 26.9530, "longitude": 94.0818 },
      { "name": "Morigaon", "latitude": 26.2515, "longitude": 92.3392 },
      { "name": "Nagaon", "latitude": 26.3480, "longitude": 92.6835 },
      { "name": "Nalbari", "latitude": 26.4431, "longitude": 91.4399 },
      { "name": "Sivasagar", "latitude": 26.9826, "longitude": 94.6425 },
      { "name": "Sonitpur", "latitude": 26.6342, "longitude": 92.7932 },
      { "name": "South Salmara-Mankachar", "latitude": 25.5670, "longitude": 89.9234 },
      { "name": "Tamulpur", "latitude": 26.6322, "longitude": 91.5791 },
      { "name": "Tinsukia", "latitude": 27.4886, "longitude": 95.3558 },
      { "name": "Udalguri", "latitude": 26.7454, "longitude": 92.0950 },
      { "name": "West Karbi Anglong", "latitude": 25.9686, "longitude": 92.3853 }
    ]
  },
  {
    "state": "Arunachal Pradesh",
    "districts": [
      { "name": "Anjaw", "latitude": 27.9150, "longitude": 96.8643 },
      { "name": "Changlang", "latitude": 27.1273, "longitude": 95.7423 },
      { "name": "Dibang Valley", "latitude": 28.8105, "longitude": 95.9613 },
      { "name": "East Kameng", "latitude": 27.2917, "longitude": 93.1812 },
      { "name": "East Siang", "latitude": 28.0683, "longitude": 95.3262 },
      { "name": "Itanagar Capital Complex", "latitude": 27.1000, "longitude": 93.6167 },
      { "name": "Kamle", "latitude": 27.6831, "longitude": 94.1206 },
      { "name": "Kra Daadi", "latitude": 27.8100, "longitude": 93.3000 },
      { "name": "Kurung Kumey", "latitude": 27.8722, "longitude": 93.3101 },
      { "name": "Lepa Rada", "latitude": 27.8016, "longitude": 94.6976 },
      { "name": "Lohit", "latitude": 27.8872, "longitude": 96.0125 },
      { "name": "Longding", "latitude": 26.8524, "longitude": 95.2753 },
      { "name": "Lower Dibang Valley", "latitude": 28.1465, "longitude": 95.8450 },
      { "name": "Lower Siang", "latitude": 27.6596, "longitude": 94.8193 },
      { "name": "Lower Subansiri", "latitude": 27.5446, "longitude": 93.8340 },
      { "name": "Namsai", "latitude": 27.6715, "longitude": 95.8752 },
      { "name": "Pakke Kessang", "latitude": 27.1408, "longitude": 93.0416 },
      { "name": "Papum Pare", "latitude": 27.1856, "longitude": 93.5936 },
      { "name": "Shi Yomi", "latitude": 28.4729, "longitude": 94.3989 },
      { "name": "Siang", "latitude": 28.2718, "longitude": 94.9427 },
      { "name": "Tawang", "latitude": 27.5861, "longitude": 91.8653 },
      { "name": "Tirap", "latitude": 26.9945, "longitude": 95.5385 },
      { "name": "Upper Siang", "latitude": 28.6186, "longitude": 94.9216 },
      { "name": "Upper Subansiri", "latitude": 28.1400, "longitude": 94.1167 },
      { "name": "West Kameng", "latitude": 27.2562, "longitude": 92.2359 },
      { "name": "West Siang", "latitude": 28.1884, "longitude": 94.6938 }
    ]
  },
  {
    "state": "Meghalaya",
    "districts": [
      { "name": "East Garo Hills", "latitude": 25.5683, "longitude": 90.6276 },
      { "name": "East Jaintia Hills", "latitude": 25.3524, "longitude": 92.3789 },
      { "name": "East Khasi Hills", "latitude": 25.5788, "longitude": 91.8933 },
      { "name": "Eastern West Khasi Hills", "latitude": 25.5562, "longitude": 91.6427 },
      { "name": "North Garo Hills", "latitude": 25.9037, "longitude": 90.6241 },
      { "name": "Ri-Bhoi", "latitude": 25.8824, "longitude": 91.8644 },
      { "name": "South Garo Hills", "latitude": 25.3624, "longitude": 90.6300 },
      { "name": "South West Garo Hills", "latitude": 25.4379, "longitude": 89.9405 },
      { "name": "South West Khasi Hills", "latitude": 25.3190, "longitude": 91.3090 },
      { "name": "West Garo Hills", "latitude": 25.5145, "longitude": 90.2036 },
      { "name": "West Jaintia Hills", "latitude": 25.4398, "longitude": 92.1979 },
      { "name": "West Khasi Hills", "latitude": 25.5303, "longitude": 91.2662 }
    ]
  },
  {
    "state": "Nagaland",
    "districts": [
      { "name": "Chümoukedima", "latitude": 25.7950, "longitude": 93.7656 },
      { "name": "Dimapur", "latitude": 25.9060, "longitude": 93.7277 },
      { "name": "Kiphire", "latitude": 25.8677, "longitude": 94.7788 },
      { "name": "Kohima", "latitude": 25.6701, "longitude": 94.1077 },
      { "name": "Longleng", "latitude": 26.4719, "longitude": 94.8083 },
      { "name": "Mokokchung", "latitude": 26.3323, "longitude": 94.5262 },
      { "name": "Mon", "latitude": 26.7441, "longitude": 95.0560 },
      { "name": "Niuland", "latitude": 25.9329, "longitude": 93.9926 },
      { "name": "Noklak", "latitude": 26.1993, "longitude": 94.9912 },
      { "name": "Peren", "latitude": 25.5126, "longitude": 93.7381 },
      { "name": "Phek", "latitude": 25.7001, "longitude": 94.4607 },
      { "name": "Shamator", "latitude": 26.0142, "longitude": 94.8727 },
      { "name": "Tseminyu", "latitude": 25.8569, "longitude": 94.2494 },
      { "name": "Tuensang", "latitude": 26.2796, "longitude": 94.8267 },
      { "name": "Wokha", "latitude": 26.1044, "longitude": 94.2625 },
      { "name": "Zunheboto", "latitude": 25.9654, "longitude": 94.5233 }
    ]
  },
  {
    "state": "Manipur",
    "districts": [
      { "name": "Bishnupur", "latitude": 24.6329, "longitude": 93.7654 },
      { "name": "Chandel", "latitude": 24.3217, "longitude": 94.0041 },
      { "name": "Churachandpur", "latitude": 24.3315, "longitude": 93.6843 },
      { "name": "Imphal East", "latitude": 24.8101, "longitude": 94.0326 },
      { "name": "Imphal West", "latitude": 24.8475, "longitude": 93.9161 },
      { "name": "Jiribam", "latitude": 24.7876, "longitude": 93.1118 },
      { "name": "Kakching", "latitude": 24.4920, "longitude": 93.9785 },
      { "name": "Kamjong", "latitude": 24.8967, "longitude": 94.3905 },
      { "name": "Kangpokpi", "latitude": 25.1396, "longitude": 93.9666 },
      { "name": "Noney", "latitude": 24.8329, "longitude": 93.6166 },
      { "name": "Pherzawl", "latitude": 24.2541, "longitude": 93.1764 },
      { "name": "Senapati", "latitude": 25.2638, "longitude": 94.0203 },
      { "name": "Tamenglong", "latitude": 24.9818, "longitude": 93.5042 },
      { "name": "Tengnoupal", "latitude": 24.3283, "longitude": 94.1352 },
      { "name": "Thoubal", "latitude": 24.6366, "longitude": 94.0094 },
      { "name": "Ukhrul", "latitude": 25.1147, "longitude": 94.3591 }
    ]
  },
  {
    "state": "Mizoram",
    "districts": [
      { "name": "Aizawl", "latitude": 23.7271, "longitude": 92.7176 },
      { "name": "Champhai", "latitude": 23.4735, "longitude": 93.3276 },
      { "name": "Hnahthial", "latitude": 22.9554, "longitude": 92.9304 },
      { "name": "Khawzawl", "latitude": 23.5358, "longitude": 93.1818 },
      { "name": "Kolasib", "latitude": 24.2251, "longitude": 92.6738 },
      { "name": "Lawngtlai", "latitude": 22.5292, "longitude": 92.8953 },
      { "name": "Lunglei", "latitude": 22.8837, "longitude": 92.7420 },
      { "name": "Mamit", "latitude": 23.9290, "longitude": 92.4908 },
      { "name": "Saiha", "latitude": 22.4862, "longitude": 92.9774 },
      { "name": "Saitual", "latitude": 23.9714, "longitude": 92.9526 },
      { "name": "Serchhip", "latitude": 23.3082, "longitude": 92.8443 }
    ]
  },
  {
    "state": "Tripura",
    "districts": [
      { "name": "Dhalai", "latitude": 23.8687, "longitude": 91.9392 },
      { "name": "Gomati", "latitude": 23.5414, "longitude": 91.4880 },
      { "name": "Khowai", "latitude": 24.0886, "longitude": 91.6033 },
      { "name": "North Tripura", "latitude": 24.3168, "longitude": 92.1765 },
      { "name": "Sepahijala", "latitude": 23.6331, "longitude": 91.3148 },
      { "name": "South Tripura", "latitude": 23.2386, "longitude": 91.5654 },
      { "name": "Unakoti", "latitude": 24.2422, "longitude": 92.0152 },
      { "name": "West Tripura", "latitude": 23.8364, "longitude": 91.2798 }
    ]
  },
  {
    "state": "Jammu and Kashmir",
    "districts": [
      { "name": "Anantnag", "latitude": 33.7300, "longitude": 75.1500 },
      { "name": "Bandipora", "latitude": 34.4200, "longitude": 74.6500 },
      { "name": "Baramulla", "latitude": 34.2000, "longitude": 74.3400 },
      { "name": "Budgam", "latitude": 34.0100, "longitude": 74.7100 },
      { "name": "Doda", "latitude": 33.1400, "longitude": 75.5400 },
      { "name": "Ganderbal", "latitude": 34.2100, "longitude": 74.7800 },
      { "name": "Jammu", "latitude": 32.7200, "longitude": 74.8500 },
      { "name": "Kathua", "latitude": 32.3700, "longitude": 75.5100 },
      { "name": "Kishtwar", "latitude": 33.3100, "longitude": 75.7600 },
      { "name": "Kulgam", "latitude": 33.6400, "longitude": 75.0100 },
      { "name": "Kupwara", "latitude": 34.5200, "longitude": 74.2500 },
      { "name": "Poonch", "latitude": 33.7700, "longitude": 74.0900 },
      { "name": "Pulwama", "latitude": 33.8700, "longitude": 74.8900 },
      { "name": "Rajouri", "latitude": 33.3800, "longitude": 74.3000 },
      { "name": "Ramban", "latitude": 33.2400, "longitude": 75.1900 },
      { "name": "Reasi", "latitude": 33.0800, "longitude": 74.8300 },
      { "name": "Samba", "latitude": 32.5500, "longitude": 75.1100 },
      { "name": "Shopian", "latitude": 33.7200, "longitude": 74.8300 },
      { "name": "Srinagar", "latitude": 34.0800, "longitude": 74.7900 },
      { "name": "Udhampur", "latitude": 32.9200, "longitude": 75.1400 }
    ]
  },
  {
    "state": "Ladakh",
    "districts": [
      { "name": "Changthang", "latitude": 33.1900, "longitude": 78.6400 },
      { "name": "Drass", "latitude": 34.4300, "longitude": 75.7600 },
      { "name": "Kargil", "latitude": 34.5500, "longitude": 76.1300 },
      { "name": "Leh", "latitude": 34.1500, "longitude": 77.5700 },
      { "name": "Nubra", "latitude": 34.5500, "longitude": 77.5500 },
      { "name": "Sham", "latitude": 34.3200, "longitude": 76.8800 },
      { "name": "Zanskar", "latitude": 33.4600, "longitude": 76.9800 }
    ]
  },
  {
    "state": "Andaman and Nicobar Islands",
    "districts": [
      { "name": "Nicobar", "latitude": 7.0500, "longitude": 93.7800 },
      { "name": "North and Middle Andaman", "latitude": 12.8900, "longitude": 92.9300 },
      { "name": "South Andaman", "latitude": 11.6600, "longitude": 92.7300 }
    ]
  },
  {
    "state": "Dadra and Nagar Haveli and Daman and Diu",
    "districts": [
      { "name": "Dadra and Nagar Haveli", "latitude": 20.2700, "longitude": 73.0100 },
      { "name": "Daman", "latitude": 20.3900, "longitude": 72.8300 },
      { "name": "Diu", "latitude": 20.7100, "longitude": 70.9800 }
    ]
  },
  {
    "state": "Puducherry",
    "districts": [
      { "name": "Karaikal", "latitude": 10.9200, "longitude": 79.8300 },
      { "name": "Mahe", "latitude": 11.7000, "longitude": 75.5300 },
      { "name": "Puducherry", "latitude": 11.9400, "longitude": 79.8000 },
      { "name": "Yanam", "latitude": 16.7300, "longitude": 82.2100 }
    ]
  },
  {
    "state": "Lakshadweep",
    "districts": [
      { "name": "Lakshadweep", "latitude": 10.5600, "longitude": 72.6400 }
    ]
  }
]
